{
  "news.ycombinator.com": {"city": "San Francisco", "country": "United States", "lat": 37.7749, "lon": -122.4194},
  "lite.cnn.com": {"city": "Atlanta", "country": "United States", "lat": 33.749, "lon": -84.388},
  "text.npr.org": {"city": "Washington DC", "country": "United States", "lat": 38.9072, "lon": -77.0369},
  "bbc.com": {"city": "London", "country": "United Kingdom", "lat": 51.5074, "lon": -0.1278},
  "reuters.com": {"city": "London", "country": "United Kingdom", "lat": 51.5074, "lon": -0.1278},
  "apnews.com": {"city": "New York", "country": "United States", "lat": 40.7128, "lon": -74.006},
  "theguardian.com": {"city": "London", "country": "United Kingdom", "lat": 51.5074, "lon": -0.1278},
  "aljazeera.com": {"city": "Doha", "country": "Qatar", "lat": 25.2854, "lon": 51.531},
  "nytimes.com": {"city": "New York", "country": "United States", "lat": 40.7128, "lon": -74.006},
  "washingtonpost.com": {"city": "Washington DC", "country": "United States", "lat": 38.9072, "lon": -77.0369},
  "usatoday.com": {"city": "McLean", "country": "United States", "lat": 38.9339, "lon": -77.1773},
  "latimes.com": {"city": "Los Angeles", "country": "United States", "lat": 34.0522, "lon": -118.2437},
  "chicagotribune.com": {"city": "Chicago", "country": "United States", "lat": 41.8781, "lon": -87.6298},
  "nypost.com": {"city": "New York", "country": "United States", "lat": 40.7128, "lon": -74.006},
  "foxnews.com": {"city": "New York", "country": "United States", "lat": 40.7128, "lon": -74.006},
  "cbsnews.com": {"city": "New York", "country": "United States", "lat": 40.7128, "lon": -74.006},
  "nbcnews.com": {"city": "New York", "country": "United States", "lat": 40.7128, "lon": -74.006},
  "abcnews.go.com": {"city": "New York", "country": "United States", "lat": 40.7128, "lon": -74.006},
  "pbs.org": {"city": "Arlington", "country": "United States", "lat": 38.8799, "lon": -77.1068},
  "npr.org": {"city": "Washington DC", "country": "United States", "lat": 38.9072, "lon": -77.0369},
  "politico.com": {"city": "Arlington", "country": "United States", "lat": 38.8799, "lon": -77.1068},
  "thehill.com": {"city": "Washington DC", "country": "United States", "lat": 38.9072, "lon": -77.0369},
  "axios.com": {"city": "Arlington", "country": "United States", "lat": 38.8799, "lon": -77.1068},
  "vox.com": {"city": "Washington DC", "country": "United States", "lat": 38.9072, "lon": -77.0369},
  "slate.com": {"city": "New York", "country": "United States", "lat": 40.7128, "lon": -74.006},
  "salon.com": {"city": "San Francisco", "country": "United States", "lat": 37.7749, "lon": -122.4194},
  "theintercept.com": {"city": "New York", "country": "United States", "lat": 40.7128, "lon": -74.006},
  "propublica.org": {"city": "New York", "country": "United States", "lat": 40.7128, "lon": -74.006},
  "motherjones.com": {"city": "San Francisco", "country": "United States", "lat": 37.7749, "lon": -122.4194},
  "rollingstone.com": {"city": "New York", "country": "United States", "lat": 40.7128, "lon": -74.006},
  "vanityfair.com": {"city": "New York", "country": "United States", "lat": 40.7128, "lon": -74.006},
  "newyorker.com": {"city": "New York", "country": "United States", "lat": 40.7128, "lon": -74.006},
  "theatlantic.com": {"city": "Washington DC", "country": "United States", "lat": 38.9072, "lon": -77.0369},
  "harpers.org": {"city": "New York", "country": "United States", "lat": 40.7128, "lon": -74.006},
  "esquire.com": {"city": "New York", "country": "United States", "lat": 40.7128, "lon": -74.006},
  "gq.com": {"city": "New York", "country": "United States", "lat": 40.7128, "lon": -74.006},
  "vogue.com": {"city": "New York", "country": "United States", "lat": 40.7128, "lon": -74.006},
  "wired.com": {"city": "San Francisco", "country": "United States", "lat": 37.7749, "lon": -122.4194},
  "economist.com": {"city": "London", "country": "United Kingdom", "lat": 51.5074, "lon": -0.1278},
  "time.com": {"city": "New York", "country": "United States", "lat": 40.7128, "lon": -74.006},
  "fortune.com": {"city": "New York", "country": "United States", "lat": 40.7128, "lon": -74.006},
  "forbes.com": {"city": "Jersey City", "country": "United States", "lat": 40.7178, "lon": -74.0431},
  "bloomberg.com": {"city": "New York", "country": "United States", "lat": 40.7128, "lon": -74.006},
  "newsweek.com": {"city": "New York", "country": "United States", "lat": 40.7128, "lon": -74.006},
  "vice.com": {"city": "Brooklyn", "country": "United States", "lat": 40.6782, "lon": -73.9442},
  "techcrunch.com": {"city": "San Francisco", "country": "United States", "lat": 37.7749, "lon": -122.4194},
  "arstechnica.com": {"city": "New York", "country": "United States", "lat": 40.7128, "lon": -74.006},
  "theverge.com": {"city": "New York", "country": "United States", "lat": 40.7128, "lon": -74.006},
  "engadget.com": {"city": "New York", "country": "United States", "lat": 40.7128, "lon": -74.006},
  "zdnet.com": {"city": "San Francisco", "country": "United States", "lat": 37.7749, "lon": -122.4194},
  "cnet.com": {"city": "San Francisco", "country": "United States", "lat": 37.7749, "lon": -122.4194},
  "tomshardware.com": {"city": "New York", "country": "United States", "lat": 40.7128, "lon": -74.006},
  "anandtech.com": {"city": "San Francisco", "country": "United States", "lat": 37.7749, "lon": -122.4194},
  "hackernoon.com": {"city": "San Francisco", "country": "United States", "lat": 37.7749, "lon": -122.4194},
  "lobste.rs": {"city": "Portland", "country": "United States", "lat": 45.5152, "lon": -122.6784},
  "slashdot.org": {"city": "Ann Arbor", "country": "United States", "lat": 42.2808, "lon": -83.743},
  "dev.to": {"city": "New York", "country": "United States", "lat": 40.7128, "lon": -74.006},
  "infoq.com": {"city": "San Francisco", "country": "United States", "lat": 37.7749, "lon": -122.4194},
  "sdtimes.com": {"city": "New York", "country": "United States", "lat": 40.7128, "lon": -74.006},
  "theregister.com": {"city": "London", "country": "United Kingdom", "lat": 51.5074, "lon": -0.1278},
  "9to5mac.com": {"city": "New York", "country": "United States", "lat": 40.7128, "lon": -74.006},
  "macrumors.com": {"city": "San Francisco", "country": "United States", "lat": 37.7749, "lon": -122.4194},
  "androidcentral.com": {"city": "New York", "country": "United States", "lat": 40.7128, "lon": -74.006},
  "bleepingcomputer.com": {"city": "New York", "country": "United States", "lat": 40.7128, "lon": -74.006},
  "krebsonsecurity.com": {"city": "Arlington", "country": "United States", "lat": 38.8799, "lon": -77.1068},
  "en.wikipedia.org": {"city": "San Francisco", "country": "United States", "lat": 37.7749, "lon": -122.4194},
  "developer.mozilla.org": {"city": "San Francisco", "country": "United States", "lat": 37.7749, "lon": -122.4194},
  "w3schools.com": {"city": "Sandefjord", "country": "Norway", "lat": 59.1314, "lon": 10.2168},
  "docs.python.org": {"city": "Wilmington", "country": "United States", "lat": 39.7391, "lon": -75.5398},
  "doc.rust-lang.org": {"city": "San Francisco", "country": "United States", "lat": 37.7749, "lon": -122.4194},
  "caniuse.com": {"city": "Melbourne", "country": "Australia", "lat": -37.8136, "lon": 144.9631},
  "devdocs.io": {"city": "Montreal", "country": "Canada", "lat": 45.5017, "lon": -73.5673},
  "arxiv.org": {"city": "Ithaca", "country": "United States", "lat": 42.4534, "lon": -76.4735},
  "nature.com": {"city": "London", "country": "United Kingdom", "lat": 51.5074, "lon": -0.1278},
  "science.org": {"city": "Washington DC", "country": "United States", "lat": 38.9072, "lon": -77.0369},
  "scholar.google.com": {"city": "Mountain View", "country": "United States", "lat": 37.3861, "lon": -122.0839},
  "pubmed.ncbi.nlm.nih.gov": {"city": "Bethesda", "country": "United States", "lat": 38.9847, "lon": -77.0947},
  "biorxiv.org": {"city": "Cold Spring Harbor", "country": "United States", "lat": 40.8715, "lon": -73.4568},
  "sciencedaily.com": {"city": "Rockville", "country": "United States", "lat": 39.084, "lon": -77.1528},
  "phys.org": {"city": "Douglas", "country": "Isle of Man", "lat": 54.1509, "lon": -4.4851},
  "newscientist.com": {"city": "London", "country": "United Kingdom", "lat": 51.5074, "lon": -0.1278},
  "quantamagazine.org": {"city": "New York", "country": "United States", "lat": 40.7128, "lon": -74.006},
  "paulgraham.com": {"city": "San Francisco", "country": "United States", "lat": 37.7749, "lon": -122.4194},
  "daringfireball.net": {"city": "Philadelphia", "country": "United States", "lat": 39.9526, "lon": -75.1652},
  "danluu.com": {"city": "San Francisco", "country": "United States", "lat": 37.7749, "lon": -122.4194},
  "joelonsoftware.com": {"city": "New York", "country": "United States", "lat": 40.7128, "lon": -74.006},
  "kottke.org": {"city": "New York", "country": "United States", "lat": 40.7128, "lon": -74.006},
  "gwern.net": {"city": "San Francisco", "country": "United States", "lat": 37.7749, "lon": -122.4194},
  "marco.org": {"city": "New York", "country": "United States", "lat": 40.7128, "lon": -74.006},
  "stratechery.com": {"city": "Taipei", "country": "Taiwan", "lat": 25.033, "lon": 121.5654},
  "waitbutwhy.com": {"city": "New York", "country": "United States", "lat": 40.7128, "lon": -74.006},
  "xkcd.com": {"city": "Boston", "country": "United States", "lat": 42.3601, "lon": -71.0589},
  "seths.blog": {"city": "New York", "country": "United States", "lat": 40.7128, "lon": -74.006},
  "themarginalian.org": {"city": "New York", "country": "United States", "lat": 40.7128, "lon": -74.006},
  "simonwillison.net": {"city": "San Francisco", "country": "United States", "lat": 37.7749, "lon": -122.4194},
  "rachelbythebay.com": {"city": "San Francisco", "country": "United States", "lat": 37.7749, "lon": -122.4194},
  "google.com": {"city": "Mountain View", "country": "United States", "lat": 37.3861, "lon": -122.0839},
  "duckduckgo.com": {"city": "Paoli", "country": "United States", "lat": 40.0423, "lon": -75.4838},
  "bing.com": {"city": "Redmond", "country": "United States", "lat": 47.674, "lon": -122.1215},
  "yahoo.com": {"city": "Sunnyvale", "country": "United States", "lat": 37.3688, "lon": -122.0363},
  "msn.com": {"city": "Redmond", "country": "United States", "lat": 47.674, "lon": -122.1215},
  "amazon.com": {"city": "Seattle", "country": "United States", "lat": 47.6062, "lon": -122.3321},
  "ebay.com": {"city": "San Jose", "country": "United States", "lat": 37.3382, "lon": -121.8863},
  "etsy.com": {"city": "Brooklyn", "country": "United States", "lat": 40.6782, "lon": -73.9442},
  "walmart.com": {"city": "Bentonville", "country": "United States", "lat": 36.3729, "lon": -94.2088},
  "target.com": {"city": "Minneapolis", "country": "United States", "lat": 44.9778, "lon": -93.265},
  "bestbuy.com": {"city": "Richfield", "country": "United States", "lat": 44.8831, "lon": -93.2669},
  "craigslist.org": {"city": "San Francisco", "country": "United States", "lat": 37.7749, "lon": -122.4194},
  "whitehouse.gov": {"city": "Washington DC", "country": "United States", "lat": 38.8977, "lon": -77.0365},
  "nasa.gov": {"city": "Washington DC", "country": "United States", "lat": 38.883, "lon": -77.0163},
  "weather.gov": {"city": "Silver Spring", "country": "United States", "lat": 38.9907, "lon": -77.026},
  "cdc.gov": {"city": "Atlanta", "country": "United States", "lat": 33.749, "lon": -84.388},
  "nih.gov": {"city": "Bethesda", "country": "United States", "lat": 38.9847, "lon": -77.0947},
  "fda.gov": {"city": "Silver Spring", "country": "United States", "lat": 38.9907, "lon": -77.026},
  "sec.gov": {"city": "Washington DC", "country": "United States", "lat": 38.9072, "lon": -77.0369},
  "congress.gov": {"city": "Washington DC", "country": "United States", "lat": 38.8899, "lon": -77.0091},
  "uscourts.gov": {"city": "Washington DC", "country": "United States", "lat": 38.9072, "lon": -77.0369},
  "finance.yahoo.com": {"city": "Sunnyvale", "country": "United States", "lat": 37.3688, "lon": -122.0363},
  "marketwatch.com": {"city": "New York", "country": "United States", "lat": 40.7128, "lon": -74.006},
  "cnbc.com": {"city": "Englewood Cliffs", "country": "United States", "lat": 40.8843, "lon": -73.9527},
  "ft.com": {"city": "London", "country": "United Kingdom", "lat": 51.5074, "lon": -0.1278},
  "wsj.com": {"city": "New York", "country": "United States", "lat": 40.7128, "lon": -74.006},
  "investopedia.com": {"city": "New York", "country": "United States", "lat": 40.7128, "lon": -74.006},
  "coindesk.com": {"city": "New York", "country": "United States", "lat": 40.7128, "lon": -74.006},
  "old.reddit.com": {"city": "San Francisco", "country": "United States", "lat": 37.7749, "lon": -122.4194},
  "github.com": {"city": "San Francisco", "country": "United States", "lat": 37.7749, "lon": -122.4194},
  "stackoverflow.com": {"city": "New York", "country": "United States", "lat": 40.7128, "lon": -74.006},
  "mastodon.social": {"city": "Berlin", "country": "Germany", "lat": 52.52, "lon": 13.405},
  "motherfuckingwebsite.com": {"city": "San Francisco", "country": "United States", "lat": 37.7749, "lon": -122.4194},
  "bettermotherfuckingwebsite.com": {"city": "San Francisco", "country": "United States", "lat": 37.7749, "lon": -122.4194},
  "wiby.me": {"city": "Toronto", "country": "Canada", "lat": 43.6532, "lon": -79.3832},
  "info.cern.ch": {"city": "Geneva", "country": "Switzerland", "lat": 46.2044, "lon": 6.1432},
  "textfiles.com": {"city": "New York", "country": "United States", "lat": 40.7128, "lon": -74.006},
  "theoldnet.com": {"city": "San Francisco", "country": "United States", "lat": 37.7749, "lon": -122.4194},
  "imdb.com": {"city": "Seattle", "country": "United States", "lat": 47.6062, "lon": -122.3321},
  "rottentomatoes.com": {"city": "San Francisco", "country": "United States", "lat": 37.7749, "lon": -122.4194},
  "metacritic.com": {"city": "San Francisco", "country": "United States", "lat": 37.7749, "lon": -122.4194},
  "pitchfork.com": {"city": "New York", "country": "United States", "lat": 40.7128, "lon": -74.006},
  "ign.com": {"city": "San Francisco", "country": "United States", "lat": 37.7749, "lon": -122.4194},
  "gamespot.com": {"city": "San Francisco", "country": "United States", "lat": 37.7749, "lon": -122.4194},
  "espn.com": {"city": "Bristol", "country": "United States", "lat": 41.6718, "lon": -72.9493},
  "nba.com": {"city": "New York", "country": "United States", "lat": 40.7128, "lon": -74.006},
  "mlb.com": {"city": "New York", "country": "United States", "lat": 40.7128, "lon": -74.006},
  "nfl.com": {"city": "New York", "country": "United States", "lat": 40.7128, "lon": -74.006},
  "rust-lang.org": {"city": "San Francisco", "country": "United States", "lat": 37.7749, "lon": -122.4194},
  "python.org": {"city": "Wilmington", "country": "United States", "lat": 39.7391, "lon": -75.5398},
  "go.dev": {"city": "Mountain View", "country": "United States", "lat": 37.3861, "lon": -122.0839},
  "nodejs.org": {"city": "San Francisco", "country": "United States", "lat": 37.7749, "lon": -122.4194},
  "ruby-lang.org": {"city": "Matsue", "country": "Japan", "lat": 35.4723, "lon": 133.0505},
  "elixir-lang.org": {"city": "Krakow", "country": "Poland", "lat": 50.0647, "lon": 19.945},
  "ziglang.org": {"city": "San Francisco", "country": "United States", "lat": 37.7749, "lon": -122.4194},
  "julialang.org": {"city": "Cambridge", "country": "United States", "lat": 42.3736, "lon": -71.1097},
  "haskell.org": {"city": "Glasgow", "country": "United Kingdom", "lat": 55.8642, "lon": -4.2518},
  "archive.org": {"city": "San Francisco", "country": "United States", "lat": 37.7749, "lon": -122.4194},
  "gutenberg.org": {"city": "Salt Lake City", "country": "United States", "lat": 40.7608, "lon": -111.891},
  "smashingmagazine.com": {"city": "Freiburg", "country": "Germany", "lat": 47.999, "lon": 7.842},
  "css-tricks.com": {"city": "Milwaukee", "country": "United States", "lat": 43.0389, "lon": -87.9065},
  "dw.com": {"city": "Bonn", "country": "Germany", "lat": 50.7374, "lon": 7.0982},
  "france24.com": {"city": "Paris", "country": "France", "lat": 48.8566, "lon": 2.3522},
  "rt.com": {"city": "Moscow", "country": "Russia", "lat": 55.7558, "lon": 37.6173},
  "scmp.com": {"city": "Hong Kong", "country": "China", "lat": 22.3193, "lon": 114.1694},
  "japantimes.co.jp": {"city": "Tokyo", "country": "Japan", "lat": 35.6762, "lon": 139.6503},
  "koreaherald.com": {"city": "Seoul", "country": "South Korea", "lat": 37.5665, "lon": 126.978},
  "hindustantimes.com": {"city": "New Delhi", "country": "India", "lat": 28.6139, "lon": 77.209},
  "timesofindia.indiatimes.com": {"city": "Mumbai", "country": "India", "lat": 19.076, "lon": 72.8777},
  "abc.net.au": {"city": "Sydney", "country": "Australia", "lat": -33.8688, "lon": 151.2093},
  "cbc.ca": {"city": "Toronto", "country": "Canada", "lat": 43.6532, "lon": -79.3832},
  "thestar.com": {"city": "Toronto", "country": "Canada", "lat": 43.6532, "lon": -79.3832},
  "spiegel.de": {"city": "Hamburg", "country": "Germany", "lat": 53.5511, "lon": 9.9937},
  "lemonde.fr": {"city": "Paris", "country": "France", "lat": 48.8566, "lon": 2.3522},
  "english.elpais.com": {"city": "Madrid", "country": "Spain", "lat": 40.4168, "lon": -3.7038},
  "skysports.com": {"city": "London", "country": "United Kingdom", "lat": 51.5074, "lon": -0.1278},
  "bleacherreport.com": {"city": "San Francisco", "country": "United States", "lat": 37.7749, "lon": -122.4194},
  "si.com": {"city": "New York", "country": "United States", "lat": 40.7128, "lon": -74.006},
  "cbssports.com": {"city": "New York", "country": "United States", "lat": 40.7128, "lon": -74.006},
  "producthunt.com": {"city": "San Francisco", "country": "United States", "lat": 37.7749, "lon": -122.4194},
  "dribbble.com": {"city": "San Francisco", "country": "United States", "lat": 37.7749, "lon": -122.4194},
  "behance.net": {"city": "San Jose", "country": "United States", "lat": 37.3382, "lon": -121.8863},
  "codepen.io": {"city": "San Francisco", "country": "United States", "lat": 37.7749, "lon": -122.4194},
  "replit.com": {"city": "San Francisco", "country": "United States", "lat": 37.7749, "lon": -122.4194},
  "glitch.com": {"city": "New York", "country": "United States", "lat": 40.7128, "lon": -74.006},
  "netlify.com": {"city": "San Francisco", "country": "United States", "lat": 37.7749, "lon": -122.4194},
  "vercel.com": {"city": "San Francisco", "country": "United States", "lat": 37.7749, "lon": -122.4194},
  "digitalocean.com": {"city": "New York", "country": "United States", "lat": 40.7128, "lon": -74.006},
  "cloudflare.com": {"city": "San Francisco", "country": "United States", "lat": 37.7749, "lon": -122.4194},
  "fastly.com": {"city": "San Francisco", "country": "United States", "lat": 37.7749, "lon": -122.4194},
  "supabase.com": {"city": "San Francisco", "country": "United States", "lat": 37.7749, "lon": -122.4194},
  "apod.nasa.gov": {"city": "Greenbelt", "country": "United States", "lat": 38.9897, "lon": -76.8756},
  "space.com": {"city": "New York", "country": "United States", "lat": 40.7128, "lon": -74.006},
  "livescience.com": {"city": "New York", "country": "United States", "lat": 40.7128, "lon": -74.006},
  "iflscience.com": {"city": "London", "country": "United Kingdom", "lat": 51.5074, "lon": -0.1278},
  "smithsonianmag.com": {"city": "Washington DC", "country": "United States", "lat": 38.9072, "lon": -77.0369},
  "khanacademy.org": {"city": "Mountain View", "country": "United States", "lat": 37.3861, "lon": -122.0839},
  "coursera.org": {"city": "Mountain View", "country": "United States", "lat": 37.3861, "lon": -122.0839},
  "edx.org": {"city": "Cambridge", "country": "United States", "lat": 42.3736, "lon": -71.1097},
  "ocw.mit.edu": {"city": "Cambridge", "country": "United States", "lat": 42.3601, "lon": -71.0942},
  "stanford.edu": {"city": "Stanford", "country": "United States", "lat": 37.4275, "lon": -122.1697},
  "mit.edu": {"city": "Cambridge", "country": "United States", "lat": 42.3601, "lon": -71.0942},
  "harvard.edu": {"city": "Cambridge", "country": "United States", "lat": 42.3770, "lon": -71.1167},
  "berkeley.edu": {"city": "Berkeley", "country": "United States", "lat": 37.8716, "lon": -122.2727},
  "ox.ac.uk": {"city": "Oxford", "country": "United Kingdom", "lat": 51.752, "lon": -1.2577},
  "cam.ac.uk": {"city": "Cambridge", "country": "United Kingdom", "lat": 52.2053, "lon": 0.1218},
  "barrons.com": {"city": "New York", "country": "United States", "lat": 40.7128, "lon": -74.006},
  "morningstar.com": {"city": "Chicago", "country": "United States", "lat": 41.8781, "lon": -87.6298},
  "seekingalpha.com": {"city": "New York", "country": "United States", "lat": 40.7128, "lon": -74.006},
  "fool.com": {"city": "Alexandria", "country": "United States", "lat": 38.8048, "lon": -77.0469},
  "nerdwallet.com": {"city": "San Francisco", "country": "United States", "lat": 37.7749, "lon": -122.4194},
  "bankrate.com": {"city": "New York", "country": "United States", "lat": 40.7128, "lon": -74.006},
  "webmd.com": {"city": "New York", "country": "United States", "lat": 40.7128, "lon": -74.006},
  "healthline.com": {"city": "San Francisco", "country": "United States", "lat": 37.7749, "lon": -122.4194},
  "mayoclinic.org": {"city": "Rochester", "country": "United States", "lat": 44.0121, "lon": -92.4802},
  "medlineplus.gov": {"city": "Bethesda", "country": "United States", "lat": 38.9847, "lon": -77.0947},
  "drugs.com": {"city": "Auckland", "country": "New Zealand", "lat": -36.8485, "lon": 174.7633},
  "shopify.com": {"city": "Ottawa", "country": "Canada", "lat": 45.4215, "lon": -75.6972},
  "stripe.com": {"city": "San Francisco", "country": "United States", "lat": 37.7749, "lon": -122.4194},
  "squareup.com": {"city": "San Francisco", "country": "United States", "lat": 37.7749, "lon": -122.4194},
  "paypal.com": {"city": "San Jose", "country": "United States", "lat": 37.3382, "lon": -121.8863},
  "newegg.com": {"city": "City of Industry", "country": "United States", "lat": 34.0197, "lon": -117.9587},
  "bhphotovideo.com": {"city": "New York", "country": "United States", "lat": 40.7128, "lon": -74.006},
  "wayfair.com": {"city": "Boston", "country": "United States", "lat": 42.3601, "lon": -71.0589},
  "zappos.com": {"city": "Las Vegas", "country": "United States", "lat": 36.1699, "lon": -115.1398},
  "homedepot.com": {"city": "Atlanta", "country": "United States", "lat": 33.749, "lon": -84.388},
  "lowes.com": {"city": "Mooresville", "country": "United States", "lat": 35.5849, "lon": -80.8101},
  "substack.com": {"city": "San Francisco", "country": "United States", "lat": 37.7749, "lon": -122.4194},
  "medium.com": {"city": "San Francisco", "country": "United States", "lat": 37.7749, "lon": -122.4194},
  "wordpress.com": {"city": "San Francisco", "country": "United States", "lat": 37.7749, "lon": -122.4194},
  "ghost.org": {"city": "Singapore", "country": "Singapore", "lat": 1.3521, "lon": 103.8198},
  "tumblr.com": {"city": "New York", "country": "United States", "lat": 40.7128, "lon": -74.006},
  "micro.blog": {"city": "Austin", "country": "United States", "lat": 30.2672, "lon": -97.7431},
  "letterboxd.com": {"city": "Auckland", "country": "New Zealand", "lat": -36.8485, "lon": 174.7633},
  "goodreads.com": {"city": "San Francisco", "country": "United States", "lat": 37.7749, "lon": -122.4194},
  "discogs.com": {"city": "Portland", "country": "United States", "lat": 45.5152, "lon": -122.6784},
  "bandcamp.com": {"city": "Oakland", "country": "United States", "lat": 37.8044, "lon": -122.2712},
  "soundcloud.com": {"city": "Berlin", "country": "Germany", "lat": 52.52, "lon": 13.405},
  "twitch.tv": {"city": "San Francisco", "country": "United States", "lat": 37.7749, "lon": -122.4194},
  "allrecipes.com": {"city": "Seattle", "country": "United States", "lat": 47.6062, "lon": -122.3321},
  "seriouseats.com": {"city": "New York", "country": "United States", "lat": 40.7128, "lon": -74.006},
  "foodnetwork.com": {"city": "New York", "country": "United States", "lat": 40.7128, "lon": -74.006},
  "tripadvisor.com": {"city": "Needham", "country": "United States", "lat": 42.2843, "lon": -71.2328},
  "yelp.com": {"city": "San Francisco", "country": "United States", "lat": 37.7749, "lon": -122.4194},
  "zillow.com": {"city": "Seattle", "country": "United States", "lat": 47.6062, "lon": -122.3321},
  "redfin.com": {"city": "Seattle", "country": "United States", "lat": 47.6062, "lon": -122.3321},
  "airbnb.com": {"city": "San Francisco", "country": "United States", "lat": 37.7749, "lon": -122.4194},
  "docs.github.com": {"city": "San Francisco", "country": "United States", "lat": 37.7749, "lon": -122.4194},
  "about.gitlab.com": {"city": "San Francisco", "country": "United States", "lat": 37.7749, "lon": -122.4194},
  "bitbucket.org": {"city": "Sydney", "country": "Australia", "lat": -33.8688, "lon": 151.2093},
  "npmjs.com": {"city": "Oakland", "country": "United States", "lat": 37.8044, "lon": -122.2712},
  "pypi.org": {"city": "Wilmington", "country": "United States", "lat": 39.7391, "lon": -75.5398},
  "crates.io": {"city": "San Francisco", "country": "United States", "lat": 37.7749, "lon": -122.4194},
  "rubygems.org": {"city": "San Francisco", "country": "United States", "lat": 37.7749, "lon": -122.4194},
  "hub.docker.com": {"city": "San Francisco", "country": "United States", "lat": 37.7749, "lon": -122.4194},
  "kubernetes.io": {"city": "Mountain View", "country": "United States", "lat": 37.3861, "lon": -122.0839},
  "jenkins.io": {"city": "San Francisco", "country": "United States", "lat": 37.7749, "lon": -122.4194}
}